{
    "airports": [
        {
            "name": "Melbourne Airport",
            "code": "mel",
            "city": "Melbourne",
            "coordinates": {
                "x": 1002,
                "y": 484
            }
        },
        {
            "name": "Sydney Airport",
            "code": "syd",
            "city": "Sydney",
            "coordinates": {
                "x": 1037,
                "y": 464
            }
        },
        {
            "name": "John F. Kennedy International Airport",
            "code": "jfk",
            "city": "New York City",
            "coordinates": {
                "x": 248,
                "y": 160
            }
        },
        {
            "name": "Heathrow Airport",
            "code": "lhr",
            "city": "London",
            "coordinates": {
                "x": 512,
                "y": 112
            }
        },
        {
            "name": "Dubai International Airport",
            "code": "dxb",
            "city": "Dubai",
            "coordinates": {
                "x": 710,
                "y": 227
            }
        },
        {
            "name": "Singapore Changi Airport",
            "code": "sin",
            "city": "Singapore",
            "coordinates": {
                "x": 905,
                "y": 320
            }
        },
        {
            "name": "Los Angeles International Airport",
            "code": "lax",
            "city": "Los Angelse",
            "coordinates": {
                "x": 71,
                "y": 184
            }
        },
        {
            "name": "San Francisco International Airport",
            "code": "sfo",
            "city": "San Francisco",
            "coordinates": {
                "x": 65,
                "y": 165
            }
        },
        {
            "name": "Newark Liberty International Airport",
            "code": "ewr",
            "city": "Newark",
            "coordinates": {
                "x": 240,
                "y": 160
            }
        },
        {
            "name": "Hong Kong International Airport",
            "code": "hkg",
            "city": "Hong Kong",
            "coordinates": {
                "x": 932,
                "y": 233
            }
        },
        {
            "name": "Hamad International Airport",
            "code": "doh",
            "city": "Doha",
            "coordinates": {
                "x": 699,
                "y": 221
            }
        },
        {
            "name": "Vancouver International Airport",
            "code": "yvr",
            "city": "Vancouver",
            "coordinates": {
                "x": 96,
                "y": 118
            }
        },
        {
            "name": "Toronto Pearson International Airport",
            "code": "yyz",
            "city": "Toronto",
            "coordinates": {
                "x": 238,
                "y": 139
            }
        }
    ]
}
